{"version": 0.6, "generator": "Overpass API 0.7.61.5 4133829e", "osm3s": {"timestamp_osm_base": "2023-11-13T00:46:50Z", "copyright": "The data included in this document is from www.openstreetmap.org. The data is made available under ODbL."}, "elements": [{"type": "node", "id": 250224485, "lat": 52.3726582, "lon": 4.8352937, "tags": {"name": "Jan van Galenstraat", "network": "Amsterdamse metro", "operator": "GVB", "public_transport": "station", "railway": "station", "start_date": "1997-05-28", "station": "subway", "subway": "yes", "wheelchair": "yes", "wikidata": "Q3273303", "wikipedia": "nl:Jan van Galenstraat (metrostation)", "zone": "5713"}}, {"type": "node", "id": 2237721918, "lat": 52.3796134, "lon": 4.8382223, "tags": {"name": "De Vlugtlaan", "network": "Amsterdamse metro", "operator": "GVB", "public_transport": "station", "railway": "station", "start_date": "1997-05-28", "station": "subway", "subway": "yes", "website": "https://9292.nl/en/amsterdam/metrostation-burg-de-vlugtlaan", "wheelchair": "yes", "wikidata": "Q2061210", "wikimedia_commons": "Category:Metrostation De Vlugtlaan", "wikipedia": "nl:De Vlugtlaan (metrostation)"}}, {"type": "node", "id": 411682188, "lat": 52.369219, "lon": 4.8515383, "tags": {"amenity": "parking", "capacity": "208", "name": "Parkeergarage Mercatorplein", "parking": "underground"}}, {"type": "node", "id": 2014608206, "lat": 52.3793042, "lon": 4.8453276, "tags": {"access": "yes", "addr:city": "Amsterdam", "addr:country": "NL", "addr:housenumber": "23B", "addr:postcode": "1055JE", "addr:street": "Leeuwendalersweg", "amenity": "parking", "brand": "Q-Park", "brand:wikidata": "Q1127798", "capacity": "100", "fee": "yes", "layer": "-1", "maxheight": "2.1", "name": "P+R Bos en Lommer", "operator": "Q-Park", "operator:wikidata": "Q1127798", "park_ride": "yes", "parking": "underground", "wheelchair": "yes"}}, {"type": "node", "id": 8869953566, "lat": 52.3739488, "lon": 4.8522727, "tags": {"amenity": "toilets", "fee": "no", "wheelchair": "no"}}]}