{"version": 0.6, "generator": "Overpass API 0.7.61.5 4133829e", "osm3s": {"timestamp_osm_base": "2023-11-12T14:30:45Z", "copyright": "The data included in this document is from www.openstreetmap.org. The data is made available under ODbL."}, "elements": [{"type": "node", "id": 4073743506, "lat": 52.3713176, "lon": 4.9008788, "tags": {"name": "Nieuwmarkt", "name:de": "Neumarkt", "network": "Amsterdamse metro", "operator": "GVB", "public_transport": "station", "railway": "station", "start_date": "1980-10-11", "station": "subway", "subway": "yes", "wikidata": "Q1913095", "wikimedia_commons": "Category:Metrostation Nieuwmarkt", "wikipedia": "nl:Nieuwmarkt (metrostation)"}}, {"type": "node", "id": 872644505, "lat": 52.3776025, "lon": 4.9150984, "tags": {"access": "yes", "addr:city": "Amsterdam", "addr:country": "NL", "addr:housenumber": "59", "addr:postcode": "1019GM", "addr:street": "Piet Heinkade", "amenity": "parking", "capacity": "588", "maxheight": "2.1", "name": "Piet Hein garage", "parking": "underground", "wheelchair": "yes"}}, {"type": "node", "id": 1049746964, "lat": 52.3761655, "lon": 4.9250019, "tags": {"amenity": "parking", "name": "nieuw america"}}, {"type": "node", "id": 1611116434, "lat": 52.3690676, "lon": 4.9041286, "tags": {"access": "yes", "amenity": "parking", "fee": "yes", "layer": "-1", "name": "Waterlooplein", "parking": "underground", "supervised": "yes", "wheelchair": "yes"}}, {"type": "node", "id": 2262500121, "lat": 52.3764732, "lon": 4.9208451, "tags": {"amenity": "parking"}}, {"type": "node", "id": 3391327393, "lat": 52.3772823, "lon": 4.918376, "tags": {"amenity": "parking", "brand": "Q-Park", "brand:wikidata": "Q1127798", "brand:wikipedia": "en:Q-Park", "capacity": "400", "covered": "no", "fee": "yes", "layer": "-1", "maxheight": "2", "name": "Q-Park IJ Oever Centrum", "opening_hours": "24/7", "operator": "Q-Park", "operator:wikidata": "Q1127798", "operator:wikipedia": "en:Q-Park", "parking": "underground"}}, {"type": "node", "id": 1635126985, "lat": 52.3642801, "lon": 4.9183456, "tags": {"amenity": "toilets", "changing_table": "no", "fee": "no", "female": "no", "male": "yes", "opening_hours": "24/7", "supervised": "no", "wheelchair": "no"}}, {"type": "node", "id": 4296431592, "lat": 52.3676821, "lon": 4.913161, "tags": {"amenity": "toilets", "fee": "no", "wheelchair": "no"}}, {"type": "node", "id": 5157106093, "lat": 52.3702179, "lon": 4.9116715, "tags": {"access": "yes", "amenity": "toilets", "fee": "no", "female": "no", "male": "yes", "toilets:position": "urinal", "wheelchair": "no"}}, {"type": "node", "id": 5674495856, "lat": 52.3732175, "lon": 4.9005903, "tags": {"amenity": "toilets", "fee": "no", "female": "no", "male": "yes", "opening_hours": "24/7", "supervised": "no", "toilets:disposal": "pitlatrine", "toilets:position": "urinal", "toilets:wheelchair": "no"}}, {"type": "node", "id": 5887936984, "lat": 52.3763537, "lon": 4.9116854, "tags": {"access": "customers", "amenity": "toilets", "drinking_water": "yes", "female": "yes", "male": "yes", "toilets:disposal": "flush", "toilets:position": "seated;urinal"}}, {"type": "node", "id": 8743741416, "lat": 52.3766345, "lon": 4.9131343, "tags": {"amenity": "toilets", "changing_table": "no", "male": "yes", "note": "Toilets outside of the building, urinoirs against a wall", "wheelchair": "no"}}, {"type": "node", "id": 9680130397, "lat": 52.3665465, "lon": 4.9191754, "tags": {"amenity": "toilets", "fee": "no", "wheelchair": "yes"}}, {"type": "node", "id": 9680130834, "lat": 52.367256, "lon": 4.9131558, "tags": {"amenity": "toilets", "fee": "no"}}, {"type": "node", "id": 9874469444, "lat": 52.3664754, "lon": 4.9084177, "tags": {"access": "customers", "amenity": "toilets", "unisex": "yes"}}, {"type": "node", "id": 9874469445, "lat": 52.3670577, "lon": 4.9072472, "tags": {"access": "customers", "amenity": "toilets", "unisex": "yes"}}, {"type": "node", "id": 10300899369, "lat": 52.3653163, "lon": 4.9204525, "tags": {"amenity": "toilets", "fee": "no"}}, {"type": "node", "id": 10300929537, "lat": 52.3663854, "lon": 4.9158514, "tags": {"amenity": "toilets", "fee": "no"}}, {"type": "node", "id": 10824517341, "lat": 52.3660059, "lon": 4.9135569, "tags": {"amenity": "toilets"}}]}